[
    {
        "point": {
            "lat": 50.9319606702,
            "lng": 6.96439818973
        },
        "name": "Imhoff-Schokoladenmuseum",
        "photo": "http://pic.triposo.com/ios/salo_4/pic/W__23482418.jpg",
        "category": "museum"
    },
    {
        "point": {
            "lat": 50.9406158,
            "lng": 6.960824
        },
        "name": "Cologne Cathedral",
        "photo": "http://pic.triposo.com/ios/salo_4/pic/W__4532022.jpg",
        "category": "church"
    },
    {
        "point": {
            "lat": 50.961440996,
            "lng": 6.9766099022
        },
        "name": "Cologne Zoological Garden",
        "photo": "http://pic.triposo.com/ios/salo_4/pic/Cologne_Zoological_Garden.jpg",
        "category": "zoo"
    },
    {
        "point": {
            "lat": 50.9408347,
            "lng": 6.9600217
        },
        "name": "Museum Ludwig",
        "photo": "http://pic.triposo.com/ios/salo_4/pic/N__633480736.jpg",
        "category": "museum"
    },
    {
        "point": {
            "lat": 50.9409,
            "lng": 6.96262
        },
        "name": "Memorial to gay and lesbian victims of National...",
        "photo": "http://pic.triposo.com/ios/salo_4/pic/N__774756957.jpg",
        "category": "memorial"
    },
    {
        "point": {
            "lat": 50.9366697,
            "lng": 6.946165
        },
        "name": "K\u00e4the Kollwitz Museum",
        "photo": "http://pic.triposo.com/ios/salo_4/pic/N__295804610.jpg",
        "category": "museum"
    },
    {
        "point": {
            "lat": 50.9373053185,
            "lng": 6.95839897081
        },
        "name": "Wallraf-Richartz Museum",
        "photo": "http://pic.triposo.com/ios/salo_4/pic/W__16185667.jpg",
        "category": "museum"
    },
    {
        "point": {
            "lat": 50.9385058457,
            "lng": 6.95422106005
        },
        "name": "Kolumba",
        "photo": "http://pic.triposo.com/ios/salo_4/pic/W__23799547.jpg",
        "category": "museum"
    },
    {
        "point": {
            "lat": 50.9413,
            "lng": 6.959
        },
        "name": "Shrine of the Three Kings",
        "photo": "http://pic.triposo.com/ios/salo_4/pic/Shrine_of_the_Three_Kings.jpg",
        "category": "shrine"
    },
    {
        "point": {
            "lat": 50.9608233541,
            "lng": 6.97028755109
        },
        "name": "Flora und Botanischer Garten K\u00f6ln",
        "photo": "http://pic.triposo.com/ios/salo_4/pic/W__4936527.jpg",
        "category": "park"
    },
    {
        "point": {
            "lat": 50.9406047627,
            "lng": 6.95890211168
        },
        "name": "Romano-Germanic Museum",
        "photo": "http://pic.triposo.com/ios/salo_4/pic/W__10152395.jpg",
        "category": "museum"
    },
    {
        "point": {
            "lat": 50.9385504494,
            "lng": 6.96159162834
        },
        "name": "Great St. Martin Church",
        "photo": "http://pic.triposo.com/ios/salo_4/pic/W__25270980.jpg",
        "category": "church"
    },
    {
        "point": {
            "lat": 50.9397226623,
            "lng": 6.91687847933
        },
        "name": "Melaten-Friedhof",
        "photo": "http://pic.triposo.com/ios/salo_4/pic/W__4890561.jpg",
        "category": "cemetery"
    },
    {
        "point": {
            "lat": 50.9518061521,
            "lng": 6.97906931104
        },
        "name": "Rheinpark",
        "photo": "http://pic.triposo.com/ios/salo_4/pic/N__1380612292.jpg",
        "category": "park"
    },
    {
        "point": {
            "lat": 50.9348999,
            "lng": 6.9514153
        },
        "name": "Schn\u00fctgen Museum",
        "photo": "http://pic.triposo.com/ios/salo_4/pic/N__967768529.jpg",
        "category": "museum"
    },
    {
        "point": {
            "lat": 50.9380047,
            "lng": 6.958085
        },
        "name": "Fragrance Museum",
        "photo": "http://pic.triposo.com/ios/salo_4/pic/W__48359832.jpg",
        "category": "museum"
    },
    {
        "point": {
            "lat": 50.9410644,
            "lng": 6.9572135
        },
        "name": "St. Petersglocke",
        "photo": "http://pic.triposo.com/ios/salo_4/pic/N__1094776315.jpg",
        "category": "statue"
    },
    {
        "point": {
            "lat": 50.9431083,
            "lng": 6.9467752
        },
        "name": "St. Gereon's Basilica",
        "photo": "http://pic.triposo.com/ios/salo_4/pic/W__38246033.jpg",
        "category": "church"
    },
    {
        "point": {
            "lat": 50.9345967744,
            "lng": 6.95845019925
        },
        "name": "St. Maria im Kapitol",
        "photo": "http://pic.triposo.com/ios/salo_4/pic/W__30079415.jpg",
        "category": "church"
    },
    {
        "point": {
            "lat": 51.0350915,
            "lng": 7.0319421
        },
        "name": "Morsbroich Museum",
        "photo": "http://pic.triposo.com/ios/salo_4/pic/W__37099015.jpg",
        "category": "museum"
    },
    {
        "point": {
            "lat": 50.9555891432,
            "lng": 6.97103893334
        },
        "name": "Skulpturenpark",
        "photo": "http://pic.triposo.com/ios/salo_4/pic/W__155328270.jpg",
        "category": "park"
    },
    {
        "point": {
            "lat": 50.9403757349,
            "lng": 6.97180306676
        },
        "name": "K\u00f6ln Triangle",
        "photo": "http://pic.triposo.com/ios/salo_4/pic/W__21113435.jpg",
        "category": "skyscraper"
    },
    {
        "point": {
            "lat": 50.9318736254,
            "lng": 6.95682725834
        },
        "name": "St. Georg",
        "photo": "http://pic.triposo.com/ios/salo_4/pic/W__31776681.jpg",
        "category": "church"
    },
    {
        "point": {
            "lat": 50.9419485603,
            "lng": 6.95483843245
        },
        "name": "St. Andreas",
        "photo": "http://pic.triposo.com/ios/salo_4/pic/W__25284355.jpg",
        "category": "church"
    },
    {
        "point": {
            "lat": 50.9382,
            "lng": 6.9528
        },
        "name": "Glockengasse",
        "category": "synagogue"
    },
    {
        "point": {
            "lat": 50.9457088398,
            "lng": 6.95425596922
        },
        "name": "St. Ursula",
        "photo": "http://pic.triposo.com/ios/salo_4/pic/W__27780576.jpg",
        "category": "church"
    },
    {
        "point": {
            "lat": 50.9638307683,
            "lng": 6.99723834961
        },
        "name": "M\u00fclheim Bridge",
        "photo": "http://pic.triposo.com/ios/salo_4/pic/N__600027787.jpg",
        "category": "bridge"
    },
    {
        "point": {
            "lat": 50.9171455,
            "lng": 6.9735771
        },
        "name": "S\u00fcdbr\u00fccke",
        "photo": "http://pic.triposo.com/ios/salo_4/pic/T__1ab5b5c8ab92.jpg",
        "category": "bridge"
    },
    {
        "point": {
            "lat": 50.9602888,
            "lng": 6.7823365
        },
        "name": "Brauweiler Abbey",
        "photo": "http://pic.triposo.com/ios/salo_4/pic/W__106130305.jpg",
        "category": "monastery"
    },
    {
        "point": {
            "lat": 50.9321665298,
            "lng": 6.93664621218
        },
        "name": "Synagoge K\u00f6ln",
        "photo": "http://pic.triposo.com/ios/salo_4/pic/W__31812538.jpg",
        "category": "synagogue"
    },
    {
        "point": {
            "lat": 50.9347533,
            "lng": 6.9622169
        },
        "name": "Historical Archive of the City of Cologne",
        "photo": "http://pic.triposo.com/ios/salo_4/pic/Historical_Archive_of_the_City_of_Cologne.jpg",
        "category": "museum"
    },
    {
        "point": {
            "lat": 50.9471640501,
            "lng": 6.93199286637
        },
        "name": "Colonius",
        "photo": "http://pic.triposo.com/ios/salo_4/pic/W__29138753.jpg",
        "category": "tower"
    },
    {
        "point": {
            "lat": 50.946723321,
            "lng": 6.96264878826
        },
        "name": "St. Kunibert",
        "photo": "http://pic.triposo.com/ios/salo_4/pic/W__32698066.jpg",
        "category": "church"
    },
    {
        "point": {
            "lat": 50.938,
            "lng": 6.9593
        },
        "name": "Cologne City Hall",
        "photo": "http://pic.triposo.com/ios/salo_4/pic/W__16186002.jpg",
        "category": "city hall"
    },
    {
        "point": {
            "lat": 50.9365995379,
            "lng": 6.94498968977
        },
        "name": "St. Aposteln",
        "photo": "http://pic.triposo.com/ios/salo_4/pic/W__26987608.jpg",
        "category": "church"
    },
    {
        "point": {
            "lat": 50.954372,
            "lng": 6.9577752
        },
        "name": "St. Agnes",
        "photo": "http://pic.triposo.com/ios/salo_4/pic/W__155424472.jpg",
        "category": "church"
    },
    {
        "point": {
            "lat": 50.8997222222,
            "lng": 6.99055555556
        },
        "name": "Cologne Rodenkirchen Bridge",
        "photo": "http://pic.triposo.com/ios/salo_4/pic/Cologne_Rodenkirchen_Bridge.jpg",
        "category": "bridge"
    },
    {
        "point": {
            "lat": 50.9405549882,
            "lng": 6.95004868632
        },
        "name": "EL-DE Haus",
        "photo": "http://pic.triposo.com/ios/salo_4/pic/W__48456864.jpg",
        "category": "museum"
    },
    {
        "point": {
            "lat": 50.9398020663,
            "lng": 6.95020543501
        },
        "name": "St. Maria in der Kupfergasse",
        "photo": "http://pic.triposo.com/ios/salo_4/pic/W__29207390.jpg",
        "category": "church"
    },
    {
        "point": {
            "lat": 50.9320901,
            "lng": 6.9632892
        },
        "name": "Der Tauzieher",
        "photo": "http://pic.triposo.com/ios/salo_4/pic/T__03c691f624f3.jpg",
        "category": "memorial"
    },
    {
        "point": {
            "lat": 50.921362,
            "lng": 6.9466465
        },
        "name": "Volksgarten",
        "photo": "http://pic.triposo.com/ios/salo_4/pic/N__631743923.jpg",
        "category": "park"
    },
    {
        "point": {
            "lat": 50.9405648,
            "lng": 6.9502382
        },
        "name": "NS-Dokumentationszentrum",
        "photo": "http://pic.triposo.com/ios/salo_4/pic/T__266ba73588ee.jpg",
        "category": "museum"
    },
    {
        "point": {
            "lat": 50.9346931627,
            "lng": 6.95166852392
        },
        "name": "St. Cecilia's Church",
        "photo": "http://pic.triposo.com/ios/salo_4/pic/W__24463323.jpg",
        "category": "church"
    },
    {
        "point": {
            "lat": 50.9285506993,
            "lng": 6.94800260584
        },
        "name": "St. Pantaleon's Church",
        "photo": "http://pic.triposo.com/ios/salo_4/pic/W__10212387.jpg",
        "category": "church"
    },
    {
        "point": {
            "lat": 50.9330031384,
            "lng": 6.96259217862
        },
        "name": "St. Maria Lyskirchen",
        "photo": "http://pic.triposo.com/ios/salo_4/pic/T__6dacd460ee6d.jpg",
        "category": "church"
    },
    {
        "point": {
            "lat": 50.9403217,
            "lng": 6.9544688
        },
        "name": "Museum f\u00fcr Angewandte Kunst",
        "photo": "http://pic.triposo.com/ios/salo_4/pic/W__23574603.jpg",
        "category": "museum"
    },
    {
        "point": {
            "lat": 50.9398808,
            "lng": 6.9446883
        },
        "name": "Jawne",
        "category": "museum"
    },
    {
        "point": {
            "lat": 50.9414333,
            "lng": 6.9592324
        },
        "name": "St. Maria ad Gradus",
        "photo": "http://pic.triposo.com/ios/salo_4/pic/N__267352592.jpg",
        "category": "church"
    },
    {
        "point": {
            "lat": 50.9428066418,
            "lng": 6.96172519771
        },
        "name": "Musical Dome",
        "photo": "http://pic.triposo.com/ios/salo_4/pic/W__16367389.jpg",
        "category": "theatre"
    },
    {
        "point": {
            "lat": 50.9239833,
            "lng": 6.9588027
        },
        "name": "Basilica of St. Severin",
        "photo": "http://pic.triposo.com/ios/salo_4/pic/N__248111623.jpg",
        "category": "church"
    },
    {
        "point": {
            "lat": 50.9554435214,
            "lng": 7.00924700191
        },
        "name": "Katholischer Friedhof K\u00f6ln-M\u00fclheim",
        "photo": "http://pic.triposo.com/ios/salo_4/pic/W__28786674.jpg",
        "category": "cemetery"
    },
    {
        "point": {
            "lat": 50.9624004189,
            "lng": 7.01237385694
        },
        "name": "Cologne M\u00fclheim Protestant Cemetery",
        "photo": "http://pic.triposo.com/ios/salo_4/pic/W__28804473.jpg",
        "category": "cemetery"
    },
    {
        "point": {
            "lat": 50.9404872,
            "lng": 7.0096049
        },
        "name": "Kalk Post",
        "photo": "http://pic.triposo.com/ios/salo_4/pic/N__1091374584.jpg",
        "category": "city hall"
    },
    {
        "point": {
            "lat": 50.9389739,
            "lng": 6.9515391
        },
        "name": "Cologne Opera",
        "photo": "http://pic.triposo.com/ios/salo_4/pic/N__566149020.jpg",
        "category": "theatre"
    },
    {
        "point": {
            "lat": 50.9374003464,
            "lng": 6.95076842053
        },
        "name": "Schauspiel K\u00f6ln",
        "photo": "http://pic.triposo.com/ios/salo_4/pic/Schauspiel_KC3B6ln.jpg",
        "category": "theatre"
    },
    {
        "point": {
            "lat": 50.9343564,
            "lng": 6.9504814
        },
        "name": "Rautenstrauch-Joest-Museum",
        "photo": "http://pic.triposo.com/ios/salo_4/pic/N__967768522.jpg",
        "category": "museum"
    },
    {
        "point": {
            "lat": 50.9280574349,
            "lng": 6.98196661804
        },
        "name": "J\u00fcdischer Friedhof Deutz",
        "photo": "http://pic.triposo.com/ios/salo_4/pic/W__143542051.jpg",
        "category": "cemetery"
    },
    {
        "point": {
            "lat": 50.937088,
            "lng": 6.9619478
        },
        "name": "H\u00e4nneschen-Theater",
        "photo": "http://pic.triposo.com/ios/salo_4/pic/N__260728717.jpg",
        "category": "theatre"
    },
    {
        "point": {
            "lat": 50.9717900232,
            "lng": 6.87176351224
        },
        "name": "J\u00fcdischer Friedhof K\u00f6ln-Bocklem\u00fcnd",
        "photo": "http://pic.triposo.com/ios/salo_4/pic/T__41e3cf554d53.jpg",
        "category": "cemetery"
    },
    {
        "point": {
            "lat": 50.9342800438,
            "lng": 6.9588704463
        },
        "name": "Dreik\u00f6nigenpf\u00f6rtchen",
        "photo": "http://pic.triposo.com/ios/salo_4/pic/W__30079779.jpg",
        "category": "city gate"
    },
    {
        "point": {
            "lat": 50.9254397886,
            "lng": 6.92687425297
        },
        "name": "Geusenfriedhof",
        "photo": "http://pic.triposo.com/ios/salo_4/pic/W__27291103.jpg",
        "category": "cemetery"
    },
    {
        "point": {
            "lat": 50.9408406847,
            "lng": 6.94305155153
        },
        "name": "Sartory S\u00e4le",
        "photo": "http://pic.triposo.com/ios/salo_4/pic/T__2b0e89faa989.jpg",
        "category": "concert hall"
    },
    {
        "point": {
            "lat": 50.8393438872,
            "lng": 6.85923339702
        },
        "name": "Bleibtreusee",
        "photo": "http://pic.triposo.com/ios/salo_4/pic/T__2cf62d303b31.jpg",
        "category": "lake"
    },
    {
        "point": {
            "lat": 50.9374878,
            "lng": 6.9449479
        },
        "name": "Gloria-Theater",
        "photo": "http://pic.triposo.com/ios/salo_4/pic/N__257905592.jpg",
        "category": "theatre"
    },
    {
        "point": {
            "lat": 50.9366666667,
            "lng": 6.96027777778
        },
        "name": "Innenstadt",
        "photo": "http://pic.triposo.com/ios/salo_4/pic/T__cf4493c2f022.jpg",
        "category": "neighbourhood"
    },
    {
        "point": {
            "lat": 50.9413031,
            "lng": 6.9501135
        },
        "name": "K\u00f6lnisches Stadtmuseum",
        "photo": "http://pic.triposo.com/ios/salo_4/pic/W__33203619.jpg",
        "category": "museum"
    },
    {
        "point": {
            "lat": 50.9311734058,
            "lng": 6.96465734079
        },
        "name": "Deutsches Sport & Olympia Museum",
        "photo": "http://pic.triposo.com/ios/salo_4/pic/W__23482434.jpg",
        "category": "museum"
    },
    {
        "point": {
            "lat": 50.9363472,
            "lng": 6.9369738
        },
        "name": "Volkstheater Millowitsch",
        "photo": "http://pic.triposo.com/ios/salo_4/pic/N__570694025.jpg",
        "category": "theatre"
    },
    {
        "point": {
            "lat": 50.9413278875,
            "lng": 6.96518185564
        },
        "name": "Hohenzollern Bridge",
        "photo": "http://pic.triposo.com/ios/salo_4/pic/Hohenzollern_Bridge.jpg",
        "category": "bridge"
    },
    {
        "point": {
            "lat": 50.9474092064,
            "lng": 7.02520028964
        },
        "name": "M\u00fclheimer Friedhof",
        "photo": "http://pic.triposo.com/ios/salo_4/pic/W__141253007.jpg",
        "category": "cemetery"
    },
    {
        "point": {
            "lat": 50.9803212432,
            "lng": 6.93682211076
        },
        "name": "Nordfriedhof",
        "photo": "http://pic.triposo.com/ios/salo_4/pic/W__22818613.jpg",
        "category": "cemetery"
    },
    {
        "point": {
            "lat": 50.9444507825,
            "lng": 6.96992669899
        },
        "name": "Messeturm K\u00f6ln",
        "photo": "http://pic.triposo.com/ios/salo_4/pic/W__32878250.jpg",
        "category": "skyscraper"
    },
    {
        "point": {
            "lat": 50.9342402898,
            "lng": 6.94916713128
        },
        "name": "Cologne Public Library",
        "photo": "http://pic.triposo.com/ios/salo_4/pic/T__e7ef39c234e6.jpg",
        "category": "library"
    },
    {
        "point": {
            "lat": 50.9386343,
            "lng": 6.9512096
        },
        "name": "Theater am Dom",
        "photo": "http://pic.triposo.com/ios/salo_4/pic/N__566148999.jpg",
        "category": "theatre"
    },
    {
        "point": {
            "lat": 50.9712024894,
            "lng": 6.87880724145
        },
        "name": "Westfriedhof",
        "photo": "http://pic.triposo.com/ios/salo_4/pic/W__20493041.jpg",
        "category": "cemetery"
    },
    {
        "point": {
            "lat": 50.9480696936,
            "lng": 6.94301397083
        },
        "name": "K\u00f6lnturm",
        "photo": "http://pic.triposo.com/ios/salo_4/pic/KC3B6lnTurm.jpg",
        "category": "skyscraper"
    },
    {
        "point": {
            "lat": 50.9367403013,
            "lng": 6.96069355326
        },
        "name": "Heumarkt",
        "photo": "http://pic.triposo.com/ios/salo_4/pic/N__366165256.jpg",
        "category": "square"
    },
    {
        "point": {
            "lat": 50.9274077065,
            "lng": 6.9658760411
        },
        "name": "Kranhaus",
        "photo": "http://pic.triposo.com/ios/salo_4/pic/T__f5234219ee5d.jpg",
        "category": "sight"
    },
    {
        "point": {
            "lat": 50.9277971163,
            "lng": 6.96462942873
        },
        "name": "Rheinauhafen",
        "photo": "http://pic.triposo.com/ios/salo_4/pic/W__26252012.jpg",
        "category": "port"
    },
    {
        "point": {
            "lat": 50.9358489516,
            "lng": 6.95264088102
        },
        "name": "Weltstadthaus",
        "photo": "http://pic.triposo.com/ios/salo_4/pic/W__23568054.jpg",
        "category": "sight"
    },
    {
        "point": {
            "lat": 50.9252144295,
            "lng": 6.98801130187
        },
        "name": "Deutzer Friedhof",
        "photo": "http://pic.triposo.com/ios/salo_4/pic/W__143547241.jpg",
        "category": "cemetery"
    },
    {
        "point": {
            "lat": 50.950666,
            "lng": 6.963442
        },
        "name": "Cologne sewerage system",
        "photo": "http://pic.triposo.com/ios/salo_4/pic/N__1679641146.jpg",
        "category": "sight"
    },
    {
        "point": {
            "lat": 50.8581434176,
            "lng": 6.93051516451
        },
        "name": "Friedhof Trenkebergstra\u00dfe",
        "photo": "http://pic.triposo.com/ios/salo_4/pic/T__101f56719f71.jpg",
        "category": "cemetery"
    },
    {
        "point": {
            "lat": 50.9461461509,
            "lng": 7.04326402946
        },
        "name": "Kalker Friedhof",
        "photo": "http://pic.triposo.com/ios/salo_4/pic/T__26cbe24ef26c.jpg",
        "category": "cemetery"
    },
    {
        "point": {
            "lat": 50.9390861,
            "lng": 6.9446251
        },
        "name": "Galerie Priska Pasquer",
        "photo": "http://pic.triposo.com/ios/salo_4/pic/T__3794294fa9cb.jpg",
        "category": "museum"
    },
    {
        "point": {
            "lat": 50.9246374429,
            "lng": 6.95556649559
        },
        "name": "Kart\u00e4userkirche",
        "photo": "http://pic.triposo.com/ios/salo_4/pic/W__34999318.jpg",
        "category": "church"
    },
    {
        "point": {
            "lat": 50.9304369958,
            "lng": 6.96569235613
        },
        "name": "Severinsbr\u00fccke",
        "category": "bridge"
    },
    {
        "point": {
            "lat": 50.9325727,
            "lng": 6.9624817
        },
        "name": "K\u00f6lner Senfmuseum",
        "category": "museum"
    },
    {
        "point": {
            "lat": 50.8987052,
            "lng": 6.982367
        },
        "name": "K\u00f6lner Festungsmuseum",
        "photo": "http://pic.triposo.com/ios/salo_4/pic/N__603582311.jpg",
        "category": "museum"
    },
    {
        "point": {
            "lat": 50.885,
            "lng": 6.97944
        },
        "name": "Forstbotanischer Garten K\u00f6ln",
        "photo": "http://pic.triposo.com/ios/salo_4/pic/Forstbotanischer_Garten_KC3B6ln.jpg",
        "category": "botanical garden"
    },
    {
        "point": {
            "lat": 50.9536593472,
            "lng": 6.91531997386
        },
        "name": "Arkada\u015f Theater",
        "category": "theatre"
    },
    {
        "point": {
            "lat": 50.9399162192,
            "lng": 6.94492944449
        },
        "name": "Erich Klibansky Platz",
        "photo": "http://pic.triposo.com/ios/salo_4/pic/W__24234331.jpg",
        "category": "square"
    },
    {
        "point": {
            "lat": 50.9417207011,
            "lng": 6.95852865421
        },
        "name": "Domschatz- Kammer",
        "photo": "http://pic.triposo.com/ios/salo_4/pic/W__38578888.jpg",
        "category": "museum"
    },
    {
        "point": {
            "lat": 50.9417720022,
            "lng": 6.99360527531
        },
        "name": "Odysseum K\u00f6ln",
        "photo": "http://pic.triposo.com/ios/salo_4/pic/W__32983790.jpg",
        "category": "museum"
    },
    {
        "point": {
            "lat": 50.9413284673,
            "lng": 6.95043422672
        },
        "name": "Zeughaus",
        "category": "museum"
    },
    {
        "point": {
            "lat": 50.9412535569,
            "lng": 6.94955804074
        },
        "name": "Alte Wache",
        "category": "museum"
    },
    {
        "point": {
            "lat": 50.9396681,
            "lng": 6.9605866
        },
        "name": "Senft\u00f6pfchen",
        "category": "theatre"
    },
    {
        "point": {
            "lat": 50.9390184,
            "lng": 6.9589508
        },
        "name": "Praetorium",
        "photo": "http://pic.triposo.com/ios/salo_4/pic/N__529807675.jpg",
        "category": "sight"
    },
    {
        "point": {
            "lat": 50.9360905,
            "lng": 6.943953
        },
        "name": "K\u00f6lnischer Kunstverein",
        "photo": "http://pic.triposo.com/ios/salo_4/pic/N__643068699.jpg",
        "category": "museum"
    },
    {
        "point": {
            "lat": 50.9286848751,
            "lng": 6.95919990681
        },
        "name": "St. Gregorius im Elend",
        "photo": "http://pic.triposo.com/ios/salo_4/pic/W__32009538.jpg",
        "category": "church"
    },
    {
        "point": {
            "lat": 50.9340958782,
            "lng": 6.96044180316
        },
        "name": "Overstolzenhaus",
        "photo": "http://pic.triposo.com/ios/salo_4/pic/T__651d126bb291.jpg",
        "category": "university"
    },
    {
        "point": {
            "lat": 50.9364174241,
            "lng": 6.94016745139
        },
        "name": "Hahnentorburg",
        "photo": "http://pic.triposo.com/ios/salo_4/pic/W__50997849.jpg",
        "category": "city gate"
    },
    {
        "point": {
            "lat": 50.9745673885,
            "lng": 7.01695421131
        },
        "name": "J\u00fcdischer Friedhof K\u00f6ln-M\u00fclheim",
        "category": "cemetery"
    },
    {
        "point": {
            "lat": 50.9269765196,
            "lng": 6.95264856906
        },
        "name": "St. Maria vom Frieden church and convent",
        "photo": "http://pic.triposo.com/ios/salo_4/pic/T__0212bd9b80d8.jpg",
        "category": "church"
    },
    {
        "point": {
            "lat": 50.9438,
            "lng": 6.9745
        },
        "name": "Koelnmesse",
        "photo": "http://pic.triposo.com/ios/salo_4/pic/T__1aef816662fd.jpg",
        "category": "convention centre"
    },
    {
        "point": {
            "lat": 50.9354993151,
            "lng": 6.97364995473
        },
        "name": "St. Johannes Kirche",
        "category": "church"
    },
    {
        "point": {
            "lat": 50.9457725,
            "lng": 6.9371796
        },
        "name": "St. Alban",
        "photo": "http://pic.triposo.com/ios/salo_4/pic/W__58412165.jpg",
        "category": "church"
    },
    {
        "point": {
            "lat": 50.9384822844,
            "lng": 6.95999497004
        },
        "name": "Alter Markt",
        "photo": "http://pic.triposo.com/ios/salo_4/pic/N__633172571.jpg",
        "category": "square"
    },
    {
        "point": {
            "lat": 50.9482714,
            "lng": 6.960011
        },
        "name": "Theater Tiefrot",
        "category": "theatre"
    },
    {
        "point": {
            "lat": 51.0116145032,
            "lng": 6.98142128529
        },
        "name": "Japanischer Garten",
        "photo": "http://pic.triposo.com/ios/salo_4/pic/N__276275243.jpg",
        "category": "park"
    },
    {
        "point": {
            "lat": 50.8194444444,
            "lng": 6.85277777778
        },
        "name": "Rhineland Nature Park",
        "photo": "http://pic.triposo.com/ios/salo_4/pic/Rhineland_Nature_Park.jpg",
        "category": "park"
    },
    {
        "point": {
            "lat": 50.9431402503,
            "lng": 6.95158126013
        },
        "name": "Hl. Konstantin u. Helena - Russisch-Orthodoxe K...",
        "photo": "http://pic.triposo.com/ios/salo_4/pic/W__31290799.jpg",
        "category": "church"
    },
    {
        "point": {
            "lat": 50.9635361264,
            "lng": 6.97686363982
        },
        "name": "Spielplatz K\u00f6lner Zoo",
        "category": "zoo"
    },
    {
        "point": {
            "lat": 50.9443103,
            "lng": 6.9558245
        },
        "name": "HA Schult Museum",
        "category": "museum"
    },
    {
        "point": {
            "lat": 50.9420759,
            "lng": 6.9509294
        },
        "name": "Kunst-und Museumsbibl.",
        "category": "museum"
    },
    {
        "point": {
            "lat": 50.9124166667,
            "lng": 6.95852222222
        },
        "name": "Judenb\u00fcchel",
        "photo": "http://pic.triposo.com/ios/salo_4/pic/T__4195383cfbb6.jpg",
        "category": "cemetery"
    },
    {
        "point": {
            "lat": 50.949313488,
            "lng": 6.95686158118
        },
        "name": "Eigelsteintorburg",
        "photo": "http://pic.triposo.com/ios/salo_4/pic/W__51570458.jpg",
        "category": "city gate"
    },
    {
        "point": {
            "lat": 50.9584530544,
            "lng": 6.97240575464
        },
        "name": "Aquarium",
        "category": "zoo"
    },
    {
        "point": {
            "lat": 50.8981,
            "lng": 6.93889
        },
        "name": "S\u00fcdfriedhof",
        "photo": "http://pic.triposo.com/ios/salo_4/pic/T__2c4eecce88c3.jpg",
        "category": "cemetery"
    },
    {
        "point": {
            "lat": 50.9411093938,
            "lng": 6.95359924163
        },
        "name": "St. Maria ad Ortum",
        "photo": "http://pic.triposo.com/ios/salo_4/pic/W__38028565.jpg",
        "category": "church"
    },
    {
        "point": {
            "lat": 50.9361516,
            "lng": 6.9571184
        },
        "name": "G\u00fcrzenich dance hall",
        "photo": "http://pic.triposo.com/ios/salo_4/pic/W__24037443.jpg",
        "category": "theatre"
    },
    {
        "point": {
            "lat": 50.9700608818,
            "lng": 6.97045945876
        },
        "name": "Federal Office of Administration",
        "photo": "http://pic.triposo.com/ios/salo_4/pic/W__25599001.jpg",
        "category": "sight"
    },
    {
        "point": {
            "lat": 50.9347131562,
            "lng": 7.02319649302
        },
        "name": "St Theodor",
        "photo": "http://pic.triposo.com/ios/salo_4/pic/W__117743037.jpg",
        "category": "church"
    },
    {
        "point": {
            "lat": 50.9405008204,
            "lng": 6.95797014303
        },
        "name": "Weihnachtsmarkt am K\u00f6lner Dom",
        "photo": "http://pic.triposo.com/ios/salo_4/pic/T__c5dd6d2bf242.jpg",
        "category": "market"
    },
    {
        "point": {
            "lat": 50.9351805032,
            "lng": 6.92560357342
        },
        "name": "Museum f\u00fcr Ostasiatische Kunst",
        "photo": "http://pic.triposo.com/ios/salo_4/pic/W__38490298.jpg",
        "category": "museum"
    },
    {
        "point": {
            "lat": 50.9382526635,
            "lng": 6.9585765788
        },
        "name": "Archaeological Zone - Jewish Museum",
        "category": "museum"
    },
    {
        "point": {
            "lat": 50.9639129,
            "lng": 6.9768709
        },
        "name": "Riehl",
        "photo": "http://pic.triposo.com/ios/salo_4/pic/W__49937051.jpg",
        "category": "church"
    },
    {
        "point": {
            "lat": 50.9408747126,
            "lng": 6.94667309428
        },
        "name": "Romerturm",
        "photo": "http://pic.triposo.com/ios/salo_4/pic/N__444111700.jpg",
        "category": "sight"
    },
    {
        "point": {
            "lat": 50.9384485221,
            "lng": 6.96260797636
        },
        "name": "Fischmarkt",
        "photo": "http://pic.triposo.com/ios/salo_4/pic/T__6920ad9f2620.jpg",
        "category": "square"
    },
    {
        "point": {
            "lat": 50.923737429,
            "lng": 6.9669840631
        },
        "name": "Bayen-tower",
        "photo": "http://pic.triposo.com/ios/salo_4/pic/W__26230282.jpg",
        "category": "city gate"
    },
    {
        "point": {
            "lat": 50.9421137,
            "lng": 6.9589528
        },
        "name": "Alter Wartesaal",
        "category": "sight"
    },
    {
        "point": {
            "lat": 50.9289749452,
            "lng": 6.95790364016
        },
        "name": "St. Johann Baptist",
        "photo": "http://pic.triposo.com/ios/salo_4/pic/W__31777249.jpg",
        "category": "church"
    },
    {
        "point": {
            "lat": 50.9666666667,
            "lng": 7.01666666667
        },
        "name": "M\u00fclheim",
        "photo": "http://pic.triposo.com/ios/salo_4/pic/T__9db491567326.jpg",
        "category": "neighbourhood"
    },
    {
        "point": {
            "lat": 50.9242330145,
            "lng": 6.95309068496
        },
        "name": "Ulrepforte",
        "photo": "http://pic.triposo.com/ios/salo_4/pic/W__35006256.jpg",
        "category": "city gate"
    },
    {
        "point": {
            "lat": 50.9854095871,
            "lng": 6.91772982762
        },
        "name": "Rheinisches industriebahn Museum K\u00f6ln",
        "photo": "http://pic.triposo.com/ios/salo_4/pic/N__654412790.jpg",
        "category": "museum"
    },
    {
        "point": {
            "lat": 50.9240224,
            "lng": 6.9675009
        },
        "name": "Galerie Holtmann",
        "photo": "http://pic.triposo.com/ios/salo_4/pic/T__fa853e8e3410.jpg",
        "category": "museum"
    },
    {
        "point": {
            "lat": 50.8948750992,
            "lng": 6.95826605864
        },
        "name": "Fritz-Encke-Volkspark",
        "photo": "http://pic.triposo.com/ios/salo_4/pic/T__31e947a27fbb.jpg",
        "category": "park"
    },
    {
        "point": {
            "lat": 50.9636651261,
            "lng": 7.08061735669
        },
        "name": "Ostfriedhof",
        "photo": "http://pic.triposo.com/ios/salo_4/pic/T__1e02fa34e6eb.jpg",
        "category": "cemetery"
    },
    {
        "point": {
            "lat": 50.9343718143,
            "lng": 6.95176161993
        },
        "name": "St. Peter church",
        "photo": "http://pic.triposo.com/ios/salo_4/pic/T__fdf7a47cbc0c.jpg",
        "category": "church"
    },
    {
        "point": {
            "lat": 50.9548683046,
            "lng": 6.92598036343
        },
        "name": "St. Anna",
        "photo": "http://pic.triposo.com/ios/salo_4/pic/W__26936040.jpg",
        "category": "church"
    },
    {
        "point": {
            "lat": 50.9460401531,
            "lng": 6.94746381104
        },
        "name": "mittelalterl. Stadtmauer",
        "photo": "http://pic.triposo.com/ios/salo_4/pic/T__43acb6acfb33.jpg",
        "category": "sight"
    },
    {
        "point": {
            "lat": 50.9179503647,
            "lng": 6.9313901012
        },
        "name": "Wei\u00dfhaus",
        "photo": "http://pic.triposo.com/ios/salo_4/pic/T__7a3f2c0f5e93.jpg",
        "category": "park"
    },
    {
        "point": {
            "lat": 50.9605555556,
            "lng": 6.9825
        },
        "name": "Colonia-Haus",
        "photo": "http://pic.triposo.com/ios/salo_4/pic/W__29016008.jpg",
        "category": "skyscraper"
    },
    {
        "point": {
            "lat": 50.968543,
            "lng": 6.9485045
        },
        "name": "Archiv f\u00fcr Stadtteilgeschichte K\u00f6ln-Nippes e.V.",
        "photo": "http://pic.triposo.com/ios/salo_4/pic/T__aa07e82ff0cd.jpg",
        "category": "museum"
    },
    {
        "point": {
            "lat": 50.9365306566,
            "lng": 6.96864065707
        },
        "name": "Linie 18 Ri. Bonn",
        "category": "bridge"
    },
    {
        "point": {
            "lat": 50.9288188931,
            "lng": 6.95694444444
        },
        "name": "Colonia Claudia Ara Agrippinensium",
        "photo": "http://pic.triposo.com/ios/salo_4/pic/Colonia_Claudia_Ara_Agrippinensium.jpg",
        "category": "area"
    },
    {
        "point": {
            "lat": 50.9399913,
            "lng": 6.9573112
        },
        "name": "Heinzelm\u00e4nnchenbrunnen",
        "category": "fountain"
    },
    {
        "point": {
            "lat": 50.93738,
            "lng": 6.9413107
        },
        "name": "Kunsthandlung Osper",
        "photo": "http://pic.triposo.com/ios/salo_4/pic/T__f4b2a65ede21.jpg",
        "category": "museum"
    },
    {
        "point": {
            "lat": 50.941439235,
            "lng": 6.96572134407
        },
        "name": "Climbing-wall at Hohenzollernbr\u00fccke",
        "category": "bridge"
    },
    {
        "point": {
            "lat": 50.9219571311,
            "lng": 6.95929902821
        },
        "name": "Severinstorburg",
        "photo": "http://pic.triposo.com/ios/salo_4/pic/W__42693266.jpg",
        "category": "city gate"
    },
    {
        "point": {
            "lat": 50.9486933,
            "lng": 6.9433901
        },
        "name": "Deutsches Tanzarchiv",
        "category": "museum"
    },
    {
        "point": {
            "lat": 50.9413031,
            "lng": 6.956366
        },
        "name": "Kreuzblume",
        "photo": "http://pic.triposo.com/ios/salo_4/pic/N__1094776262.jpg",
        "category": "statue"
    },
    {
        "point": {
            "lat": 50.93897,
            "lng": 6.9449391
        },
        "name": "Sprungturm",
        "photo": "http://pic.triposo.com/ios/salo_4/pic/T__be9d3d4b8f3a.jpg",
        "category": "museum"
    },
    {
        "point": {
            "lat": 50.9393727156,
            "lng": 6.95474766371
        },
        "name": "Minoritenkirche",
        "photo": "http://pic.triposo.com/ios/salo_4/pic/W__25219546.jpg",
        "category": "church"
    },
    {
        "point": {
            "lat": 50.8928511,
            "lng": 6.9944973
        },
        "name": "Rodenkirchen",
        "photo": "http://pic.triposo.com/ios/salo_4/pic/T__d6f181e06d92.jpg",
        "category": "neighbourhood"
    },
    {
        "point": {
            "lat": 50.9391435414,
            "lng": 6.96263359408
        },
        "name": "Rheingarten",
        "category": "park"
    },
    {
        "point": {
            "lat": 50.9813488351,
            "lng": 6.89909511365
        },
        "name": "Awb Butzweilerhof M\u00fclldeponie",
        "category": "zoo"
    },
    {
        "point": {
            "lat": 50.8965093,
            "lng": 6.8968621
        },
        "name": "Efferen",
        "category": "castle"
    },
    {
        "point": {
            "lat": 50.9211111111,
            "lng": 6.95972222222
        },
        "name": "Cologne Ring",
        "photo": "http://pic.triposo.com/ios/salo_4/pic/Cologne_Ring.jpg",
        "category": "street"
    },
    {
        "point": {
            "lat": 50.9329325,
            "lng": 6.9591569
        },
        "name": "Bundesverband Bildender K\u00fcnstler",
        "photo": "http://pic.triposo.com/ios/salo_4/pic/N__674754098.jpg",
        "category": "museum"
    },
    {
        "point": {
            "lat": 50.9946949489,
            "lng": 7.05393783146
        },
        "name": "Wildpark D\u00fcnnwald",
        "category": "zoo"
    },
    {
        "point": {
            "lat": 50.9362757388,
            "lng": 6.95313583979
        },
        "name": "Antoniter Kirche",
        "photo": "http://pic.triposo.com/ios/salo_4/pic/W__30115781.jpg",
        "category": "church"
    },
    {
        "point": {
            "lat": 50.9412091,
            "lng": 6.9563343
        },
        "name": "Taubenbrunnen",
        "photo": "http://pic.triposo.com/ios/salo_4/pic/N__262403342.jpg",
        "category": "fountain"
    },
    {
        "point": {
            "lat": 50.9148714711,
            "lng": 6.91850308154
        },
        "name": "Zur heiligen Familie",
        "photo": "http://pic.triposo.com/ios/salo_4/pic/T__d902dd81da45.jpg",
        "category": "church"
    },
    {
        "point": {
            "lat": 50.93625915,
            "lng": 6.9606859
        },
        "name": "Reiterdenkmal Friedrich Wilhelm Iii.",
        "photo": "http://pic.triposo.com/ios/salo_4/pic/W__42139396.jpg",
        "category": "memorial"
    },
    {
        "point": {
            "lat": 50.9369226689,
            "lng": 6.95826788129
        },
        "name": "Old St Albans",
        "photo": "http://pic.triposo.com/ios/salo_4/pic/W__25048555.jpg",
        "category": "ruin"
    },
    {
        "point": {
            "lat": 50.8882580713,
            "lng": 6.87944958076
        },
        "name": "Gertrudenhof Herm\u00fclheim",
        "category": "zoo"
    },
    {
        "point": {
            "lat": 50.9407909,
            "lng": 6.95751275
        },
        "name": "Domfont\u00e4ne",
        "category": "fountain"
    },
    {
        "point": {
            "lat": 50.945357343,
            "lng": 6.97151433674
        },
        "name": "Tanzbrunnen",
        "category": "market"
    },
    {
        "point": {
            "lat": 50.9089077,
            "lng": 6.9411615
        },
        "name": "Galerie DISPLAY",
        "photo": "http://pic.triposo.com/ios/salo_4/pic/T__1055380da51c.jpg",
        "category": "art gallery"
    },
    {
        "point": {
            "lat": 50.9430746567,
            "lng": 6.95664482523
        },
        "name": "St. Mari\u00e4 Himmelfahrt",
        "photo": "http://pic.triposo.com/ios/salo_4/pic/W__27274393.jpg",
        "category": "church"
    },
    {
        "point": {
            "lat": 50.9382806,
            "lng": 6.9457799
        },
        "name": "Kabarett Klingelp\u00fctz",
        "photo": "http://pic.triposo.com/ios/salo_4/pic/N__1265004394.jpg",
        "category": "theatre"
    },
    {
        "point": {
            "lat": 50.938673032,
            "lng": 6.95872651296
        },
        "name": "Rathaus",
        "photo": "http://pic.triposo.com/ios/salo_4/pic/W__23493947.jpg",
        "category": "city hall"
    },
    {
        "point": {
            "lat": 50.9972909299,
            "lng": 6.9064836488
        },
        "name": "St. Dionysius",
        "photo": "http://pic.triposo.com/ios/salo_4/pic/T__3df093bcf377.jpg",
        "category": "church"
    },
    {
        "point": {
            "lat": 50.908926276,
            "lng": 6.9182483225
        },
        "name": "Johanneskirche",
        "photo": "http://pic.triposo.com/ios/salo_4/pic/T__7f88490029e4.jpg",
        "category": "church"
    },
    {
        "point": {
            "lat": 50.9951705,
            "lng": 6.9248539
        },
        "name": "Kath. B\u00fccherei Christ K\u00f6nig",
        "photo": "http://pic.triposo.com/ios/salo_4/pic/T__27788607c6e9.jpg",
        "category": "church"
    },
    {
        "point": {
            "lat": 50.93805556,
            "lng": 6.96138889
        },
        "name": "Lintgasse",
        "photo": "http://pic.triposo.com/ios/salo_4/pic/Lintgasse.jpg",
        "category": "street"
    },
    {
        "point": {
            "lat": 50.8686742,
            "lng": 7.0448783
        },
        "name": "Synagoge Z\u00fcndorf",
        "category": "memorial"
    },
    {
        "point": {
            "lat": 50.937032,
            "lng": 6.9593261
        },
        "name": "Atelier-Farbenspiele",
        "photo": "http://pic.triposo.com/ios/salo_4/pic/T__d8410af97013.jpg",
        "category": "museum"
    },
    {
        "point": {
            "lat": 50.9400954,
            "lng": 6.9462714
        },
        "name": "Able & Baker Gallery",
        "photo": "http://pic.triposo.com/ios/salo_4/pic/T__e2643b86faf0.jpg",
        "category": "museum"
    },
    {
        "point": {
            "lat": 50.9615624463,
            "lng": 7.00483202563
        },
        "name": "Wiener Platz",
        "category": "square"
    },
    {
        "point": {
            "lat": 50.9333814572,
            "lng": 6.96074712992
        },
        "name": "Trinitatiskirche",
        "category": "church"
    },
    {
        "point": {
            "lat": 50.9799034464,
            "lng": 7.01748951285
        },
        "name": "Sanatan Hari Om Mandir Cologne",
        "photo": "http://pic.triposo.com/ios/salo_4/pic/T__49ee0030cfd5.jpg",
        "category": "temple"
    },
    {
        "point": {
            "lat": 50.9960398694,
            "lng": 6.9823306813
        },
        "name": "Optischer Telegraph",
        "photo": "http://pic.triposo.com/ios/salo_4/pic/T__3348a94d1c3e.jpg",
        "category": "sight"
    },
    {
        "point": {
            "lat": 50.9607681,
            "lng": 6.9768689
        },
        "name": "Dr. Garthe",
        "photo": "http://pic.triposo.com/ios/salo_4/pic/T__67547a065427.jpg",
        "category": "memorial"
    },
    {
        "point": {
            "lat": 50.94257,
            "lng": 6.958976
        },
        "name": "IgroMir",
        "photo": "http://pic.triposo.com/ios/salo_4/pic/T__1f427606827d.jpg",
        "category": "sight"
    },
    {
        "point": {
            "lat": 50.9343482,
            "lng": 6.9728275
        },
        "name": "Moschee Deutz",
        "photo": "http://pic.triposo.com/ios/salo_4/pic/N__390965762.jpg",
        "category": "mosque"
    },
    {
        "point": {
            "lat": 50.9387672,
            "lng": 6.946773
        },
        "name": "Carr\u00e9 d'artistes Deutschland",
        "photo": "http://pic.triposo.com/ios/salo_4/pic/T__1c3885b2c02f.jpg",
        "category": "museum"
    },
    {
        "point": {
            "lat": 50.9359622841,
            "lng": 6.94035081378
        },
        "name": "Rudolfplatz",
        "category": "square"
    },
    {
        "point": {
            "lat": 50.9208884,
            "lng": 6.9647203
        },
        "name": "Bibliothek der Fachhochschule",
        "photo": "http://pic.triposo.com/ios/salo_4/pic/T__e7ce0d051c43.jpg",
        "category": "university"
    },
    {
        "point": {
            "lat": 50.9493420269,
            "lng": 6.96539796536
        },
        "name": "Weckschnapp",
        "photo": "http://pic.triposo.com/ios/salo_4/pic/T__d7aab67a692c.jpg",
        "category": "tower"
    },
    {
        "point": {
            "lat": 50.954567,
            "lng": 6.975392
        },
        "name": "Cologne Cable Car",
        "photo": "http://pic.triposo.com/ios/salo_4/pic/Cologne_Cable_Car.jpg",
        "category": "sight"
    },
    {
        "point": {
            "lat": 50.97611111,
            "lng": 7.06305556
        },
        "name": "Zollkriminalamt",
        "category": "sight"
    },
    {
        "point": {
            "lat": 50.9281310881,
            "lng": 6.96354223307
        },
        "name": "K\u00fcnstlermuseum Beckers B\u00f6ll\u200e",
        "photo": "http://pic.triposo.com/ios/salo_4/pic/W__27169200.jpg",
        "category": "statue"
    },
    {
        "point": {
            "lat": 50.9631026998,
            "lng": 6.95220998176
        },
        "name": "Wilhelmplatz market",
        "category": "market"
    },
    {
        "point": {
            "lat": 50.9689884396,
            "lng": 7.01681614581
        },
        "name": "Cologne Palladium",
        "photo": "http://pic.triposo.com/ios/salo_4/pic/T__098dfc95ec83.jpg",
        "category": "music venue"
    },
    {
        "point": {
            "lat": 50.9326255,
            "lng": 6.95333655
        },
        "name": "Gro\u00dfer Griechenmarkt",
        "category": "market"
    },
    {
        "point": {
            "lat": 50.9696324613,
            "lng": 7.01659406297
        },
        "name": "E-Werk",
        "photo": "http://pic.triposo.com/ios/salo_4/pic/T__8fe6d7e8bd2c.jpg",
        "category": "music venue"
    },
    {
        "point": {
            "lat": 50.9640936,
            "lng": 6.9539356
        },
        "name": "Nippes",
        "photo": "http://pic.triposo.com/ios/salo_4/pic/T__4dcc11566db3.jpg",
        "category": "neighbourhood"
    }
]